[
    {
      "id" : 1, 
      "sigun" : "가평군",
      "title": "가평축협 한우명가",
      "tel":"031-1234-1234", 
      "title_food": "푸른연잎한우명품꽃등심",
      "zip":"12345",
      "address": "도로명 주소",
      "address_old": "지번 주소",
      "lat": "37.8158443",
      "lon": "127.5161283",
      "radius": "100"
    },
    {
      "id" : 2, 
      "sigun" : "고양시",
      "title": "청정바지락 칼국수",
      "tel":"031-1234-1234", 
      "title_food": "천년초들깨수제비",
      "zip":"12345",
      "address": "도로명 주소",
      "address_old": "지번 주소",
      "lat": "37.6737073",
      "lon": "127.5161283",
      "radius": "100"
    },
    {
      "id" : 3, 
      "sigun" : "광주시",
      "title": "수와연",
      "tel":"031-1234-1234", 
      "title_food": "산야초마늘밥",
      "zip":"12345",
      "address": "도로명 주소",
      "address_old": "지번 주소",
      "lat": "37.4987118",
      "lon": "127.5161283",
      "radius": "100"
    },
    {
      "id" : 4, 
      "sigun" : "남양주시",
      "title": "(주)광름불고기",
      "tel":"031-1234-1234", 
      "title_food": "숯불고기",
      "zip":"12345",
      "address": "도로명 주소",
      "address_old": "지번 주소",
      "lat": "37.7449333",
      "lon": "127.2079146",
      "radius": "100"
    },
    {
      "id" : 5, 
      "sigun" : "김포시",
      "title": "풀잎속의 생명",
      "tel":"031-1234-1234", 
      "title_food": "생명정식, 풀잎정식",
      "zip":"12345",
      "address": "도로명 주소",
      "address_old": "지번 주소",
      "lat": "37.6218241",
      "lon": "126.7226352",
      "radius": "100"
    }
]